[{"Name":"北投區區民活動中心","Type":"活動中心","District":"北投區","Address":"臺北市新市街30號6樓","Telphone":"2891-2105#221","Latitude":"25.1324256","Longitude":"121.5030005","MoreInfo":"Null"},{"Name":"石牌國中","Type":"學校","District":"北投區","Address":"臺北市北投區石牌路1段139號","Telphone":"28224682#250","Latitude":"25.1149915","Longitude":"121.5141752","MoreInfo":"Null"},{"Name":"北投國小","Type":"優先安置學校","District":"北投區","Address":"臺北市北投區中央北路1段173號","Telphone":"28912052#131","Latitude":"25.135573","Longitude":"121.498061","MoreInfo":"Null"},{"Name":"泉源國小","Type":"學校","District":"北投區","Address":"臺北市北投區東昇路34號","Telphone":"28951258#141","Latitude":"25.1492158","Longitude":"121.5243642","MoreInfo":"Null"},{"Name":"湖山國小","Type":"學校","District":"北投區","Address":"臺北市北投區湖底路11號","Telphone":"28610148#130","Latitude":"25.1497385","Longitude":"121.5354569","MoreInfo":"Null"},{"Name":"新民國中","Type":"優先安置學校","District":"北投區","Address":"臺北市北投區新民路10號","Telphone":"28979001#500","Latitude":"25.1380991","Longitude":"121.5076354","MoreInfo":"Null"},{"Name":"逸仙國小","Type":"優先安置學校","District":"北投區","Address":"臺北市北投區新民路2號","Telphone":"28914537#34","Latitude":"25.1383709","Longitude":"121.5051619","MoreInfo":"Null"},{"Name":"復興公園","Type":"防災公園","District":"北投區","Address":"臺北市北投區中和街200號","Telphone":"2861-6533","Latitude":"25.1389895","Longitude":"121.5023793","MoreInfo":"Null"},{"Name":"吳氏宗祠","Type":"寺廟","District":"北投區","Address":"臺北市北投區復興三路348號(299810.625,2783304.27)","Telphone":"28972300","Latitude":"25.155525","Longitude":"121.502228","MoreInfo":"Null"},{"Name":"慈航寺","Type":"寺廟","District":"北投區","Address":"臺北市北投區中和街456號","Telphone":"Null","Latitude":"25.14538","Longitude":"121.496461","MoreInfo":"Null"},{"Name":"臺北市北投運動中心","Type":"運動場館","District":"北投區","Address":"臺北市北投區石牌路1段39巷100號","Telphone":"25702330#6426","Latitude":"25.1164729","Longitude":"121.509768","MoreInfo":"Null"},{"Name":"復興崗營區","Type":"國軍營區","District":"北投區","Address":"中央北路二段70號","Telphone":"Null","Latitude":"25.1394823","Longitude":"121.4915784","MoreInfo":"Null"},{"Name":"大屯國小","Type":"學校","District":"北投區","Address":"北投區復興三路312號","Telphone":"28914353-13）","Latitude":"25.154895","Longitude":"121.503983","MoreInfo":"Null"},{"Name":"洲美國小","Type":"學校","District":"北投區","Address":"北投區洲美街185號","Telphone":"28313619#218","Latitude":"25.1008241","Longitude":"121.5028446","MoreInfo":"Null"},{"Name":"湖田國小","Type":"學校","District":"北投區","Address":"北投區竹子湖路17-2號","Telphone":"28616963#10","Latitude":"25.1684568","Longitude":"121.538774","MoreInfo":"Null"},{"Name":"桃源國中","Type":"優先安置學校","District":"北投區","Address":"北投區中央北路4段48號","Telphone":"28929633-241","Latitude":"25.1347436","Longitude":"121.4773213","MoreInfo":"Null"},{"Name":"桃源國小","Type":"學校","District":"北投區","Address":"北投區中央北路3段40巷45號","Telphone":"28941208＃107","Latitude":"25.1396039","Longitude":"121.4844882","MoreInfo":"Null"},{"Name":"關渡國中","Type":"學校","District":"北投區","Address":"北投區知行路212號","Telphone":"28581770#51","Latitude":"25.1198994","Longitude":"121.4671379","MoreInfo":"Null"},{"Name":"清江國小","Type":"學校","District":"北投區","Address":"北投區公舘路220號","Telphone":"28912764＃301","Latitude":"25.1513306","Longitude":"121.5462552","MoreInfo":"Null"},{"Name":"立農國小","Type":"學校","District":"北投區","Address":"北投區立農街1段250號","Telphone":"2821-0702轉301","Latitude":"25.1194932","Longitude":"121.5052095","MoreInfo":"Null"},{"Name":"文化國小","Type":"學校","District":"北投區","Address":"北投區文化3路1號","Telphone":"28933828#131","Latitude":"25.1385101","Longitude":"121.4989151","MoreInfo":"Null"},{"Name":"北投國中","Type":"學校","District":"北投區","Address":"北投區溫泉路62號","Telphone":"28912091#402","Latitude":"25.1344543","Longitude":"121.5042015","MoreInfo":"Null"},{"Name":"明德國中","Type":"學校","District":"北投區","Address":"北投區明德路50號","Telphone":"28232539-601","Latitude":"25.1078101","Longitude":"121.5184747","MoreInfo":"Null"},{"Name":"中正高中","Type":"學校","District":"北投區","Address":"北投區文林北路77號","Telphone":"28234811*113","Latitude":"25.1044123","Longitude":"121.516608","MoreInfo":"Null"},{"Name":"明德國小","Type":"學校","District":"北投區","Address":"北投區明德路190號","Telphone":"28229651＃1121","Latitude":"25.1121146","Longitude":"121.521808","MoreInfo":"Null"},{"Name":"關渡國小","Type":"學校","District":"北投區","Address":"北投區中央北路4段581號","Telphone":"28912847#241","Latitude":"25.1268487","Longitude":"121.4668446","MoreInfo":"Null"},{"Name":"石牌國小","Type":"學校","District":"北投區","Address":"北投區致遠2路80號","Telphone":"2822-7484*32","Latitude":"25.109329","Longitude":"121.515823","MoreInfo":"Null"},{"Name":"義方國小","Type":"學校","District":"北投區","Address":"北投區珠海路155號","Telphone":"28917433#131","Latitude":"25.1419502","Longitude":"121.5093086","MoreInfo":"Null"},{"Name":"文林國小","Type":"學校","District":"北投區","Address":"北投區文林北路155號","Telphone":"28234212轉401","Latitude":"25.1059048","Longitude":"121.5147443","MoreInfo":"Null"},{"Name":"復興高中","Type":"學校","District":"北投區","Address":"北投區復興四路70號","Telphone":"2891-4131*787","Latitude":"25.1435907","Longitude":"121.5017997","MoreInfo":"Null"},{"Name":"行天宮北投分宮","Type":"寺廟","District":"北投區","Address":"北投區一德里中央北路4段18巷50號","Telphone":"2718-0171#229","Latitude":"25.1370094","Longitude":"121.4775702","MoreInfo":"Null"},{"Name":"關渡宮","Type":"寺廟","District":"北投區","Address":"北投區關渡里知行路360號","Telphone":"2858-1281#207","Latitude":"25.1176841","Longitude":"121.4643868","MoreInfo":"Null"}]